$GPGGA,134353.000,4425.9723,N,02601.8555,E,1,6,1.15,111.6,M,36.0,M,,*5E
$GPGSA,A,3,01,14,11,22,06,19,,,,,,,1.47,1.15,0.92*04
$GPRMC,134353.000,A,4425.9723,N,02601.8555,E,0.13,236.87,031113,,,A*66
$GPVTG,236.87,T,,M,0.13,N,0.24,K,A*31
$GPGGA,134354.000,4425.9726,N,02601.8553,E,1,6,1.15,111.6,M,36.0,M,,*5A
$GPGSA,A,3,01,14,11,22,06,19,,,,,,,1.47,1.15,0.92*04
$GPRMC,134354.000,A,4425.9726,N,02601.8553,E,0.19,253.00,031113,,,A*64
$GPVTG,253.00,T,,M,0.19,N,0.36,K,A*34
$GPGGA,134355.000,4425.9726,N,02601.8552,E,1,6,1.15,111.6,M,36.0,M,,*5A
$GPGSA,A,3,01,14,11,22,06,19,,,,,,,1.47,1.15,0.92*04
$GPGSV,4,1,13,11,62,295,25,19,57,206,22,14,53,083,38,32,47,250,18*72
$GPGSV,4,2,13,01,39,302,26,22,30,063,47,03,30,190,14,27,27,177,16*7D
$GPGSV,4,3,13,40,26,131,,06,18,174,17,20,13,253,,28,11,308,14*74
$GPGSV,4,4,13,24,01,024,*4A
$GPRMC,134355.000,A,4425.9726,N,02601.8552,E,0.17,227.86,031113,,,A*67
$GPVTG,227.86,T,,M,0.17,N,0.31,K,A*30
$GPGGA,134356.000,4425.9726,N,02601.8552,E,1,6,1.15,111.6,M,36.0,M,,*59
$GPGSA,A,3,01,14,11,22,06,19,,,,,,,1.47,1.15,0.92*04
$GPRMC,134356.000,A,4425.9726,N,02601.8552,E,0.05,279.23,031113,,,A*63
$GPVTG,279.23,T,,M,0.05,N,0.10,K,A*34
$GPGGA,134357.000,4425.9726,N,02601.8552,E,1,6,1.15,111.6,M,36.0,M,,*58
$GPGSA,A,3,01,14,11,22,06,19,,,,,,,1.47,1.15,0.92*04
$GPRMC,134357.000,A,4425.9726,N,02601.8552,E,0.05,210.51,031113,,,A*68
$GPVTG,210.51,T,,M,0.05,N,0.09,K,A*36
$GPGGA,134358.000,4425.9726,N,02601.8552,E,1,6,1.15,111.6,M,36.0,M,,*57
$GPGSA,A,3,01,14,11,22,06,19,,,,,,,1.47,1.15,0.92*04
$GPRMC,134358.000,A,4425.9726,N,02601.8552,E,0.11,188.26,031113,,,A*60
$GPVTG,188.26,T,,M,0.11,N,0.21,K,A*3B
$GPGGA,134359.000,4425.9725,N,02601.8552,E,1,6,1.15,111.6,M,36.0,M,,*55
$GPGSA,A,3,01,14,11,22,06,19,,,,,,,1.47,1.15,0.92*04
$GPRMC,134359.000,A,4425.9725,N,02601.8552,E,0.01,125.77,031113,,,A*60
$GPVTG,125.77,T,,M,0.01,N,0.02,K,A*38
$GPGGA,134400.000,4425.9726,N,02601.8552,E,1,6,1.15,111.6,M,36.0,M,,*5D
$GPGSA,A,3,01,14,11,22,06,19,,,,,,,1.47,1.15,0.92*04
$GPGSV,4,1,14,11,62,295,18,19,57,206,22,14,53,083,38,32,47,250,18*7B
$GPGSV,4,2,14,01,39,302,26,22,30,063,47,03,30,190,16,27,27,177,17*79
$GPGSV,4,3,14,40,26,131,,06,18,174,18,20,13,253,,28,11,308,14*7C
$GPGSV,4,4,14,24,01,024,,31,01,133,*7F
$GPRMC,134400.000,A,4425.9726,N,02601.8552,E,0.03,333.69,031113,,,A*60
$GPVTG,333.69,T,,M,0.03,N,0.06,K,A*34
$GPGGA,134401.000,4425.9726,N,02601.8552,E,1,6,1.15,111.6,M,36.0,M,,*5C
$GPGSA,A,3,01,14,11,22,06,19,,,,,,,1.47,1.15,0.92*04
$GPRMC,134401.000,A,4425.9726,N,02601.8552,E,0.09,211.28,031113,,,A*6F
$GPVTG,211.28,T,,M,0.09,N,0.16,K,A*3B
$GPGGA,134402.000,4425.9725,N,02601.8551,E,1,6,1.16,111.6,M,36.0,M,,*5C
$GPGSA,A,3,01,14,11,22,06,19,,,,,,,1.47,1.16,0.92*07
$GPRMC,134402.000,A,4425.9725,N,02601.8551,E,0.16,179.55,031113,,,A*65
$GPVTG,179.55,T,,M,0.16,N,0.29,K,A*3E
$GPGGA,134403.000,4425.9725,N,02601.8551,E,1,6,1.15,111.6,M,36.0,M,,*5E
$GPGSA,A,3,01,14,11,22,06,19,,,,,,,1.47,1.15,0.92*04
$GPRMC,134403.000,A,4425.9725,N,02601.8551,E,0.32,184.58,031113,,,A*6D
$GPVTG,184.58,T,,M,0.32,N,0.59,K,A*30
$GPGGA,134404.000,4425.9724,N,02601.8551,E,1,6,1.15,111.6,M,36.0,M,,*58
$GPGSA,A,3,01,14,11,22,06,19,,,,,,,1.47,1.15,0.92*04
$GPRMC,134404.000,A,4425.9724,N,02601.8551,E,0.45,176.08,031113,,,A*63
$GPVTG,176.08,T,,M,0.45,N,0.83,K,A*3F
$GPGGA,134405.000,4425.9723,N,02601.8551,E,1,6,1.15,111.6,M,36.0,M,,*5E
$GPGSA,A,3,01,14,11,22,06,19,,,,,,,1.47,1.15,0.92*04
$GPGSV,4,1,14,11,62,295,20,19,57,206,23,14,53,083,38,32,47,250,17*7E
$GPGSV,4,2,14,01,40,302,23,22,30,063,47,03,30,190,15,27,27,177,17*71
$GPGSV,4,3,14,44,25,130,,06,18,174,18,20,13,253,,28,11,308,14*7A
$GPGSV,4,4,14,24,01,024,,31,01,133,*7F
$GPRMC,134405.000,A,4425.9723,N,02601.8551,E,0.44,170.50,031113,,,A*6F
$GPVTG,170.50,T,,M,0.44,N,0.81,K,A*37
$GPGGA,134406.000,4425.9722,N,02601.8552,E,1,6,1.15,111.6,M,36.0,M,,*5F
$GPGSA,A,3,01,14,11,22,06,19,,,,,,,1.47,1.15,0.92*04
$GPRMC,134406.000,A,4425.9722,N,02601.8552,E,0.38,160.81,031113,,,A*68
$GPVTG,160.81,T,,M,0.38,N,0.70,K,A*3F
$GPGGA,134407.000,4425.9721,N,02601.8552,E,1,6,1.15,111.6,M,36.0,M,,*5D
$GPGSA,A,3,01,14,11,22,06,19,,,,,,,1.47,1.15,0.92*04
$GPRMC,134407.000,A,4425.9721,N,02601.8552,E,0.31,139.30,031113,,,A*65
$GPVTG,139.30,T,,M,0.31,N,0.57,K,A*35
$GPGGA,134408.000,4425.9720,N,02601.8553,E,1,6,1.15,111.6,M,36.0,M,,*52
$GPGSA,A,3,01,14,11,22,06,19,,,,,,,1.47,1.15,0.92*04
$GPRMC,134408.000,A,4425.9720,N,02601.8553,E,0.32,130.82,031113,,,A*69
$GPVTG,130.82,T,,M,0.32,N,0.58,K,A*39
$GPGGA,134409.000,4425.9720,N,02601.8554,E,1,6,1.15,111.6,M,36.0,M,,*54
$GPGSA,A,3,01,14,11,22,06,19,,,,,,,1.47,1.15,0.92*04
$GPRMC,134409.000,A,4425.9720,N,02601.8554,E,0.37,139.39,031113,,,A*63
$GPVTG,139.39,T,,M,0.37,N,0.68,K,A*36
$GPGGA,134410.000,4425.9719,N,02601.8555,E,1,6,1.15,111.6,M,36.0,M,,*57
$GPGSA,A,3,01,14,11,22,06,19,,,,,,,1.47,1.15,0.92*04
$GPGSV,4,1,14,11,62,295,22,19,57,206,24,14,53,083,38,32,47,250,15*79
$GPGSV,4,2,14,01,40,302,20,22,30,063,48,03,29,190,13,27,27,177,16*72
$GPGSV,4,3,14,44,25,130,,06,18,174,17,20,13,253,,28,11,308,13*72
$GPGSV,4,4,14,24,01,024,,31,01,133,*7F
$GPRMC,134410.000,A,4425.9719,N,02601.8555,E,0.38,141.85,031113,,,A*67
$GPVTG,141.85,T,,M,0.38,N,0.70,K,A*38
$GPGGA,134411.000,4425.9719,N,02601.8556,E,1,6,1.15,111.6,M,36.0,M,,*55
$GPGSA,A,3,01,14,11,22,06,19,,,,,,,1.47,1.15,0.92*04
$GPRMC,134411.000,A,4425.9719,N,02601.8556,E,0.37,130.67,031113,,,A*60
$GPVTG,130.67,T,,M,0.37,N,0.68,K,A*34
$GPGGA,134412.000,4425.9718,N,02601.8557,E,1,6,1.15,111.6,M,36.0,M,,*56
$GPGSA,A,3,01,14,11,22,06,19,,,,,,,1.47,1.15,0.92*04
$GPRMC,134412.000,A,4425.9718,N,02601.8557,E,0.39,98.17,031113,,,A*59
$GPVTG,98.17,T,,M,0.39,N,0.72,K,A*05
$GPGGA,134413.000,4425.9718,N,02601.8559,E,1,6,1.15,111.6,M,36.0,M,,*59
$GPGSA,A,3,01,14,11,22,06,19,,,,,,,1.47,1.15,0.92*04
$GPRMC,134413.000,A,4425.9718,N,02601.8559,E,0.53,111.09,031113,,,A*65
$GPVTG,111.09,T,,M,0.53,N,0.99,K,A*33
